Commune,Adresse,lat,lng
NANTES, RUE LAMBERT,47.215314600000006,-1.5518711
NANTES, RUE LEON BLUM,47.2192145,-1.5550214
NANTES, RUE DES PETITES ECURIES,47.21529090000001,-1.5524040000000001
NANTES, RUE PITRE CHEVALIER,47.223850399999996,-1.5506756000000002
NANTES, RUE PREFET BONNEFOY,47.22275279999999,-1.5481611000000002
NANTES, RUE ST-LEONARD,47.217664299999996,-1.5555006000000002
NANTES, RUE DES  CROISSANTS,47.23770349999999,-1.5254626
NANTES, RUE ADOLPHE MOITIE,47.222864799999996,-1.5544976000000001
NANTES, RUE DE LA BACLERIE,47.215438299999995,-1.5536481000000002
NANTES, B AV BASCHER,47.2219189,-1.5454299999999999
NANTES, RUE DE LA BLETERIE,47.2150444,-1.5549149
NANTES, RUE DE COLMAR,47.211996,-1.5459912
NANTES, RUE DUGAST MATIFEUX,47.22026779999999,-1.5483511
NANTES, RUE EMILE PEHANT,47.212885799999995,-1.5474013999999998
NANTES, RUE FRANCISCO FERRER,47.2201217,-1.5331386999999999
NANTES, RUE GAMBETTA,47.2213554,-1.5436946000000002
NANTES, RUE GEORGES CLEMENCEAU,47.2193748,-1.5466263999999998
NANTES, RUE HENRI COCHARD,47.2233177,-1.5496212
NANTES, RUE MATHELIN RODIER,47.2173093,-1.5505508999999997
NANTES, RUE PAUL DUBOIS,47.21542909999999,-1.5513422
NANTES, RUE DES POISSONNIERS,47.213354100000004,-1.5537591999999998
NANTES, RUE DES STOCKS,47.2217881,-1.5321582
NANTES, RUE DE STRASBOURG,47.217174,-1.552255
NANTES, RUE DE VERDUN,47.217174,-1.552255
NANTES, ALL DE VILLEBON,47.2225,-1.550217
NANTES, PL DU BOUFFAY,47.21475170000001,-1.5529255
NANTES, RUE DE BRIORD,47.2167744,-1.5531761999999998
NANTES, RUE DE CHATEAUBRIAND,47.2216385,-1.5548138999999999
NANTES, ALL CDT CHARCOT,47.217469200000004,-1.5445746
NANTES, RUE CRUCY,47.213924299999995,-1.5484573
NANTES, RUE DUFOUR,47.225767299999994,-1.544324
NANTES, QUAI FERDINAND FAVRE,47.213967700000005,-1.5430133999999998
NANTES, RUE FREDERIC CAILLIAUD,47.2202534,-1.5415795
NANTES, RUE GAL BUAT,47.2289756,-1.5407385
NANTES, RUE DE LA JUIVERIE,47.2155693,-1.5532306
NANTES, RUE LAENNEC,47.212083,-1.5476444999999999
NANTES, ALL DE LA MAISON ROUGE,47.21275560000001,-1.5516128999999999
NANTES, RUE DE MANILLE,47.2200876,-1.5350196000000003
NANTES, RUE DU MARAIS,47.2180843,-1.556293
NANTES, T IMP PHILIBERT,47.2174875,-1.5420386000000001
NANTES, RUE D ALLONVILLE,47.22192339999999,-1.5354982
NANTES, RUE DE LA BERAUDIERE,47.2267059,-1.5474176000000002
NANTES, RUE DE LA BISCUITERIE,47.2150789,-1.5454276000000002
NANTES, QUAI DE MALAKOFF,47.214157799999995,-1.5405565
NANTES, RUE MAL JOFFRE,47.2218217,-1.5472649
NANTES, RUE DU MOULIN,47.216683200000006,-1.5545331
NANTES, PRV NEPTUNE,47.214107399999996,-1.5528766999999999
NANTES, RUE PAUL BELLAMY,47.2266154,-1.5603076
NANTES, RUE RABELAIS,47.218041299999996,-1.5458348999999998
NANTES, RUE DU E REGIMENT INFANTERIE,47.226209000000004,-1.551499
NANTES, B RUE LAENNEC,47.21745,-1.560802
NANTES, RUE DE RICHEBOURG,47.21765629999999,-1.5453373
NANTES, RUE DES ROCHETTES,47.2234938,-1.5365699
NANTES, RUE DU ROI ALBERT,47.2192988,-1.5517606000000002
NANTES, CRS SULLY,47.2227576,-1.5518847
NANTES, ALL ADRIENNE BOLLAND,47.2425843,-1.5326216000000001
NANTES, RUE DE BITCHE,47.211863,-1.5418383
NANTES, RUE DE LA DISTILLERIE,47.224056,-1.5559405000000002
NANTES, ALL DUQUESNE,47.2175705,-1.5568431
NANTES, RUE DE L EMERY,47.2157968,-1.5517731000000001
NANTES, RUE DE JEMMAPES,47.2128914,-1.5455681000000001
NANTES, IMP JOSEPH PEIGNON,47.2153056,-1.5514165000000002
NANTES, RUE DE MAYENCE,47.212043200000004,-1.5457107
NANTES, ALL DE LA REINE MARGOT,47.2228369,-1.549962
NANTES, IMP ST-LAURENT,47.2177196,-1.5502679
NANTES, QUAI DE VERSAILLES,47.2246848,-1.5544062
NANTES, ALL BACO,47.214259399999996,-1.5487933999999999
NANTES, RUE DU BOURGNEUF,47.2194644,-1.5577891000000001
NANTES, RUE DE L EVECHE,47.21856289999999,-1.5508619
NANTES, RUE FRANCOIS FARINEAU,47.2272068,-1.5456598999999998
NANTES, RUE GUILLAUME GROU,47.2214116,-1.5437752
NANTES, MAIL PABLO PICASSO,47.2156294,-1.5355918
NANTES, PL STE-CROIX,47.2152599,-1.5544581
NANTES, RUE DE SAVERNE,47.21153220000001,-1.5462354
NANTES, RUE TOURNEFORT,47.22076389999999,-1.5513534
NANTES, AV CHANZY,47.224661600000005,-1.5467371
NANTES, RUE DES ECACHOIRS,47.227328899999996,-1.5472073
NANTES, RUE ECORCHARD,47.2184083,-1.5429064
NANTES, RUE FRANCOIS JOSEPH TALMA,47.225508000000005,-1.548178
NANTES, IMP FURET,47.221468,-1.5486843000000001
NANTES, RUE GASTON TURPIN,47.22349939999999,-1.5435711
NANTES, RUE GEOFFROY DROUET,47.22176940000001,-1.5485094
NANTES, RUE DESAIX,47.2274646,-1.5451831
NANTES, RUE FRANCOIS EVELLIN,47.2192782,-1.5388823999999999
NANTES, RUE MARCEL HATET,47.2228556,-1.5322508
NANTES, RUE DE RIEUX,47.2110292,-1.5452647
NANTES, VEN DU THOUET,47.215267600000004,-1.5343742
NANTES, RUE DE LOURMEL,47.216109700000004,-1.5419757
NANTES, AV ANDREE VIOLLIS,47.2014759,-1.6039065000000001
NANTES, ALL ANNE-MARIE IMBRECQ,47.218371000000005,-1.553621
NANTES, QUAI MAGELLAN,47.21038529999999,-1.5444733999999998
NANTES, RUE MONFOULON,47.2240373,-1.5485893999999998
NANTES, RUE DE LA MOUTONNERIE,47.2201217,-1.5331386999999999
NANTES, RUE AMIRAL RONARC H,47.2263467,-1.5456268
NANTES, PAS BERTHAUD,47.218371000000005,-1.553621
NANTES, RUE JEANNE D ARC,47.220726299999995,-1.5571591999999999
NANTES, RUE LEON MAITRE,47.2138494,-1.5530795
NANTES, RUE PIERRE AUDIGE,47.220267,-1.5368793
NANTES, ALL DU PORT MAILLARD,47.2149086,-1.551612
NANTES, B RUE ST-DONATIEN,47.2285804,-1.5414055
NANTES, RUE SULLY,47.22133839999999,-1.5508559
NANTES, IMP DE LA CALYPSO,47.2222884,-1.5324618
NANTES, B RUE DE COULMIERS,47.22404299999999,-1.5588908000000001
NANTES, RUE DELOYNES,47.21733039999999,-1.5462295
NANTES, RUE FENELON,47.217135600000006,-1.5539544
NANTES, RUE HENRI IV,47.217722200000004,-1.5478923
NANTES, PL SOPHIE TREBUCHET,47.2204134,-1.5453885
NANTES, RUE STANISLAS BAUDRY,47.2185891,-1.5437290000000001
NANTES, PL DUMOUSTIER,47.218514299999995,-1.5522254
NANTES, B ALL FLESSELLES,47.214295299999996,-1.554653
NANTES, ALL DES SOEURS DE L'ESPERANCE,47.220106,-1.5635135
NANTES, ALL SUSAN BROWNELL ANTHONY,47.2037584,-1.5664911
NANTES, PL DU CHANGE,47.215706700000005,-1.5549978000000002
NANTES, RUE DES ECHEVINS,47.2151086,-1.5527189
NANTES, RUE ST CHARLES,47.2248755,-1.543367
NANTES, ALL DES TANNEURS,47.219506200000005,-1.5565856000000002
NANTES, RUE DE L ARCHE SECHE,47.2161315,-1.55837
NANTES, PL DES ENFANTS NANTAIS,47.228632,-1.5429761999999998
NANTES, QUAI HENRI BARBUSSE,47.2253044,-1.5529436
NANTES, RUE DE LA PAIX,47.2147951,-1.5544545
NANTES, IMP VIGNOLLE,47.22102599999999,-1.5503418
BOUGUENAIS, RUE DES ACACIAS,47.1884831,-1.5807895
BOUGUENAIS, RUE DE LA CADOIRE,47.186950200000005,-1.5801439
BOUGUENAIS, T RUE PASTEUR,47.1861381,-1.5807063000000001
NANTES, B RUE NICOLAS APPERT,47.213855,-1.580098
NANTES, AV DU BOUT DES LANDES,47.261896,-1.5794428
NANTES, RUE EDGAR QUINET,47.215784,-1.5836446000000002
NANTES, RUE DE LA FEDERATION,47.2059982,-1.5930298
NANTES, RUE DU FONTENY,47.204741999999996,-1.5918842
NANTES, A IMP FRABOULET,47.210848,-1.5831549999999999
NANTES, AV DE LA FREGATE,47.1910961,-1.5275491
NANTES, IMP JEAN MARIE MUSTIERE,47.23573579999999,-1.5456591
NANTES, RUE DU KIRIOL,47.1854722,-1.5273655000000002
NANTES, RUE LUCIEN BAGRIN,47.21002439999999,-1.5864425
NANTES, RUE MARCEL SCHWOB,47.20931220000001,-1.5796302
NANTES, RUE DE NANCY,47.2444323,-1.5236618999999998
NANTES, B RUE DE NANCY,47.215118,-1.555739
NANTES, B RUE DE L OUCHETTE,47.22404299999999,-1.5588908000000001
NANTES, AV D OUESSANT,47.2339715,-1.5201526
NANTES, RUE DES PIBALLIERS,47.185482,-1.5287282
NANTES, RUE DU PLESSIS TISON,47.2372609,-1.538225
NANTES, RUE DE PROVENCE,47.2309296,-1.5585457
NANTES, RUE DES REINETTES,47.2458231,-1.568747
NANTES, RUE RENE GUY CADOU,47.2560473,-1.5685148000000002
ORVAULT, CHE DE SAINT MICHEL,47.253644,-1.5796780000000001
REZE, RUE EMILE ZOLA,47.1909693,-1.5584958
REZE, RUE DES FRERES BREGEON,47.1745521,-1.5475105
REZE, GRAND RUE,47.194840500000005,-1.5815829
REZE, RUE MADAME CURIE,47.1877576,-1.5555437
ST-HERBLAIN, AV DES PLANTES,47.23504630000001,-1.5844314
ST SEBASTIEN SUR LOIRE, RUE JEAN BAPTISTE LULLI,47.205841299999996,-1.4856832
ST SEBASTIEN SUR LOIRE, RUE JEAN PHILIPPE RAMEAU,47.20534259999999,-1.4859732
ST SEBASTIEN SUR LOIRE, RUE MAURICE DANIEL,47.20585879999999,-1.5086476
ST SEBASTIEN SUR LOIRE, RUE DE LA SAVARIERE,47.20973970000001,-1.4933516000000002
VERTOU, RUE DU BOIS HARDY,47.1851158,-1.5079614
NANTES, RUE ALBERT DORY,47.235400399999996,-1.5719296999999999
NANTES, RUE ARAGO,47.2064151,-1.5857948999999998
NANTES, RUE DE L AVENIR,47.2407182,-1.5285561
NANTES, RUE DES BOSQUETS,47.2205686,-1.5823791999999999
NANTES, B RUE CLEMENCE ROYER,47.2139712,-1.5787301999999999
NANTES, B BD DE L EGALITE,47.2096686,-1.5871566000000001
NANTES, RUE FRERE LOUIS,47.1938296,-1.5374813999999999
NANTES, RUE JEAN LOUIS DE GIRODET,47.2253273,-1.5851885000000001
NANTES, B RUE LEDRU ROLLIN,47.1925356,-1.5350902
NANTES, RUE DE LA SIRENE,47.239045000000004,-1.57266
NANTES, AV WATEL DEHAYNIN,47.206405700000005,-1.6020221000000001
REZE, RUE CLAUDE GAULUE,47.1830082,-1.5359641000000002
REZE, RUE JULIEN DOUILLARD,47.1844291,-1.5437919
ST-HERBLAIN, AV MICHEL LECOUR GRANDMAISON,47.2171763,-1.6061846000000002
ST-HERBLAIN, AV DES TUILERIES,47.241209600000005,-1.5951131
ST SEBASTIEN SUR LOIRE, RUE DU BAS POITOU,47.201432200000006,-1.4922958999999998
ST SEBASTIEN SUR LOIRE, RUE DES BERNARDIERES,47.190960100000005,-1.5083613
ST SEBASTIEN SUR LOIRE, B RUE DE LA GAGNERIE,47.1933483,-1.5156370000000001
ST SEBASTIEN SUR LOIRE, B RUE DES GRANDS NOELS,47.20236729999999,-1.4940744
VERTOU, RTE DE CLISSON,47.186994399999996,-1.4769504
BOUGUENAIS, AV DES PEUPLIERS,47.188627000000004,-1.5815666000000002
NANTES, RUE ALEXANDRE GOSSELIN,47.239119,-1.5340207000000001
NANTES, RUE DU BOIS HARDY,47.202967,-1.6004063999999998
NANTES, RUE DE LA CONSTITUTION,47.206012799999996,-1.5894019
NANTES, B RUE DE LA CONTRIE,47.2205346,-1.596623
NANTES, RUE DE LA CONTRIE,47.22040639999999,-1.5974887
NANTES, RUE DENIS PAPIN,47.223659600000005,-1.5220197
NANTES, BD DE DOULON,47.224953,-1.5214188999999998
NANTES, RUE DES DROITS DE L HOMME,47.2047593,-1.5894278
NANTES, AV DE FRANCE,47.2363656,-1.5666281000000002
NANTES, B AV DE LA GARE DE ST JOSEPH,47.25407509999999,-1.5232633
NANTES, RUE DE GENEVE,47.2122847,-1.6019903999999998
NANTES, AV GILARD,47.19220199999999,-1.532114
NANTES, RUE GUTENBERG,47.2015179,-1.5863953000000002
NANTES, RUE JONCOURS,47.21841089999999,-1.5922969
NANTES, RUE DE LA METHODE,47.2302054,-1.5777197
NANTES, RUE DE MIRIBEL,47.2387398,-1.5395858999999998
NANTES, RUE DE LA PETITE SENSIVE,47.2591326,-1.5601964
NANTES, RUE DES PLANTES,47.2325824,-1.5868481
NANTES, IMP DE LA ROSIERE D ARTOIS,47.2127442,-1.5681178999999998
REZE, RUE ARISTIDE BRIAND,47.180178600000005,-1.5449138
REZE, RUE DE LA BARBONNERIE,47.1915785,-1.5458048
REZE, B RUE JEAN FRAIX,47.18899270000001,-1.5460196000000002
REZE, RUE DES ROCHERS,47.1824237,-1.5519098999999998
ST-HERBLAIN, AV COURTELINE,47.2354587,-1.5854175
ST-HERBLAIN, AV DES FLORALIES,47.2347008,-1.5898726
ST-HERBLAIN, AV DE VILLANDRY,47.2404229,-1.5992728999999999
ST SEBASTIEN SUR LOIRE, RUE DES BOIS DES FAUX,47.1949195,-1.4910326
ST SEBASTIEN SUR LOIRE, RUE DES ROBARDIERES,47.2050419,-1.5070459999999999
ST SEBASTIEN SUR LOIRE, RUE DE VIENNE,47.20388759999999,-1.5132463
NANTES, RUE CHARYAU,47.2041911,-1.586543
NANTES, RUE MAISDON PAJOT,47.216229799999994,-1.5848767
NANTES, RUE DE LA PRIERE,47.221464700000006,-1.5962073
NANTES, B RUE RENAN,47.2124708,-1.5618822
NANTES, BD ROBERT SCHUMAN,47.2401022,-1.5720211000000002
REZE, RUE THEODORE PATRY,47.1868978,-1.5411337999999999
ST-HERBLAIN, AV DE LA LIBERTE,47.2230278,-1.6039607
ST-HERBLAIN, AV DE LA REPUBLIQUE,47.2261586,-1.6039636999999998
NANTES, RUE DE L ABBAYE,47.2000501,-1.597078
NANTES, RUE ALBERT CALMETTE,47.2319531,-1.5731754999999998
NANTES, RUE DE LA BASSE CHENAIE,47.23858320000001,-1.5074549
NANTES, CHE BIRET,47.21595199999999,-1.56061
NANTES, RUE DE LA BOUQUINIERE,47.18680680000001,-1.5301678
NANTES, RUE COQUEBERT DE NEUVILLE,47.23143080000001,-1.5455605
NANTES, RUE EMILE DUPLOYE,47.233843900000004,-1.5750132
NANTES, AV DE L'ENGOULEVENT,47.24436619999999,-1.513242
NANTES, RUE EUGENE BARRAULT,47.251724700000004,-1.5697021999999998
NANTES, IMP FRABOULET,47.210848,-1.5831549999999999
NANTES, RUE FRANCOIS BRUNEAU,47.230089299999996,-1.5593246
NANTES, RUE DU FRESCHE BLANC,47.2494902,-1.555447
NANTES, IMP HALGAN,47.2375474,-1.5619121999999999
ORVAULT, RUE DE LA CARRIERE,47.24883679999999,-1.5814676
ORVAULT, RUE DES MARGUERITES,47.244925099999996,-1.5836255
REZE, RUE CLOATRE,47.1945221,-1.5814974
REZE, RUE DE LA COMMUNE DE ,0.0,0.0
REZE, AV DU MAL JOSEPH JOFFRE,47.1773114,-1.5418047
REZE, RUE MAZUREAU,47.18201579999999,-1.5421901000000002
REZE, AV DES MONTS D AUVERGNE,47.1769203,-1.5518458000000002
REZE, AV DES TREILLES,47.1907426,-1.5679424
ST-HERBLAIN, AV DU DOCTEUR ROUX,47.237898,-1.589943
ST-HERBLAIN, AV DU PARNASSE,47.2347134,-1.5955073999999998
ST SEBASTIEN SUR LOIRE, AV DU DOCTEUR PAUL MICHAUX,47.207578999999996,-1.5107921
ST SEBASTIEN SUR LOIRE, RUE DE L OUCHE COLIN,47.2023,-1.5226998999999999
ST SEBASTIEN SUR LOIRE, RUE DE LA PLUME,47.194830200000006,-1.505585
NANTES, CHE DE LA COLETRIE,47.2211912,-1.5930296999999998
REZE, B RUE ALLAIN,47.1813175,-1.5453204
REZE, IMP DE LA BLORDIERE,47.1792576,-1.5346481
REZE, B RUE EMILE BLANDIN,47.177794399999996,-1.5358821000000002
REZE, RUE HENRI FIOLLIN,47.18312529999999,-1.5422129999999998
REZE, RUE PAULINE KERGOMARD,47.178179,-1.5528959999999998
ST-HERBLAIN, RUE DE LA BLANCHE,47.22020209999999,-1.6088548999999999
ST-HERBLAIN, RUE BLANDINE,47.219075700000005,-1.608013
ST-HERBLAIN, RUE DES GAUDRIES,47.2198554,-1.6058181999999999
ST SEBASTIEN SUR LOIRE, RUE DU LARGEAU,47.1924417,-1.5065872999999999
ST SEBASTIEN SUR LOIRE, PL DES MUSES,47.2094321,-1.4947624
NANTES, RUE ETIENNE DESTRANGES,47.1877455,-1.5277868000000001
NANTES, RUE DE FRIEDLAND,47.2235597,-1.5628405
NANTES, RUE GABRIEL LUNEAU,47.222606400000004,-1.5697666000000001
NANTES, VEN GERTRUDE JEKYLL,47.242133100000004,-1.5095614
NANTES, RUE DE L HERMITAGE,47.202441799999995,-1.5765396999999999
NANTES, RUE JULES MELINE,47.25642999999999,-1.517475
NANTES, RUE DES OEILLETS,47.187814,-1.5288297
NANTES, RUE DE LA PRODUCTION,47.23023209999999,-1.5784307
NANTES, RTE DE RENNES,47.2576435,-1.5794654
NANTES, RUE SGT BOBILLOT,47.2249854,-1.5243123
NANTES, RUE DE THOIRY,47.212953399999996,-1.6037798
REZE, RUE GUY LE LAN,47.18606920000001,-1.5449941999999999
REZE, RUE JEAN FRAIX,47.187044,-1.5430928
REZE, RUE MAURICE JOUAUD,47.1748184,-1.5544208000000002
REZE, RUE DU PETIT CHOISY,47.183890600000005,-1.5366254
ST-HERBLAIN, AV DE BELLEVUE,47.2348292,-1.5872276
ST-HERBLAIN, IMP DES DATTIERS,47.226056,-1.605101
ST-HERBLAIN, IMP DES FIGUIERS,47.2270586,-1.6059223
ST-HERBLAIN, RUE DES MAGNOLIERS,47.226710600000004,-1.6051520000000001
NANTES, RUE BEETHOVEN,47.23979300000001,-1.5647513000000002
NANTES, RUE CHANOINE LAROSE,47.230429,-1.5790672
NANTES, B RUE EDGAR QUINET,47.2124708,-1.5618822
NANTES, RUE D EPINAL,47.2462284,-1.5221108
NANTES, RUE DE FLORIDE,47.2112881,-1.6036348
NANTES, RUE DES FROMENTEAUX,47.1886537,-1.5248056
NANTES, RUE GALILEE,47.2059817,-1.5862343
NANTES, RUE GEORGES MEYNIEU,47.241106200000004,-1.5693435
NANTES, IMP DE GOUPILLIERES,48.8766814,1.7606688000000001
NANTES, RUE HENRI EUGENE GOUILLARD,47.2184626,-1.5936735
NANTES, RTE DE LA JONELIERE,47.2526179,-1.5478821000000003
NANTES, B AV MAURICE CLETRAS,47.2530197,-1.5105437
NANTES, RUE DES PAVILLONS,47.204547399999996,-1.5942951
NANTES, AV PETIT BRETON,47.21696739999999,-1.6031834999999999
NANTES, RUE DU SENAT,47.2385173,-1.5419933000000001
NANTES, AV DE SMYRNE,47.24040479999999,-1.5819124
NANTES, CHE DES USINES,47.2525073,-1.5421303
ORVAULT, RUE DE L ATLANTIQUE,47.247536100000005,-1.5888823
REZE, AV AUVINET,47.1880193,-1.5455874
REZE, RUE ETIENNE LEMERLE,47.1874277,-1.5634691
REZE, B RUE JEAN BAPTISTE VIGIER,47.190929600000004,-1.5460388
REZE, RUE PASCAL,47.194273700000004,-1.5831104
REZE, RUE VALLIN,47.194582200000006,-1.5812812
ST-HERBLAIN, AV DU DOCTEUR LAENNEC,47.2369529,-1.5923875
ST SEBASTIEN SUR LOIRE, RUE DE CHANTEPIE,47.20901079999999,-1.4981163999999998
ST SEBASTIEN SUR LOIRE, RUE FREDERIC CHOPIN,47.2064824,-1.4862207
BOUGUENAIS, B RUE JEAN MERMOZ,47.1774415,-1.5747162000000001
NANTES, AV DE L'ALCYON,47.24317449999999,-1.5071780000000001
NANTES, RUE AURELLE DE PALADINES,47.225782,-1.5390587
NANTES, BD BOULAY PATY,47.230629,-1.5761881000000002
NANTES, RUE DU BRULIS,47.225658700000004,-1.5159749
NANTES, AV CHARLES PAVID,47.2117472,-1.6064964
NANTES, AV DE DELPHES,47.1928458,-1.5322775
NANTES, RUE ETIENNE HERVAIS,47.2053674,-1.5964835
NANTES, AV DE L'ETOILE DE MER,47.2428146,-1.5075513
NANTES, RUE FELIX FAURE,47.2297196,-1.5692723999999998
NANTES, AV DE LA GIROFLEE,47.244758000000004,-1.5084549999999999
NANTES, IMP MADAME,47.2378153,-1.5435278000000001
NANTES, T CHE DES VIGNES DU BOURG,47.19991829999999,-1.5904742
ORVAULT, RUE D ANJOU,47.246879299999996,-1.5874757
REZE, IMP DES COUTEAUX,47.1875583,-1.5382693
REZE, PL DU PUITS,47.1960583,-1.5532428999999999
REZE, RES DU PARC,47.181459499999995,-1.5319406
ST-HERBLAIN, AV DES ACACIAS,47.216928100000004,-1.6092612
ST-HERBLAIN, AV DE BEAUSEJOUR,47.232975,-1.5882982
ST-HERBLAIN, AV DES TROENES,47.217582799999995,-1.6089252
ST SEBASTIEN SUR LOIRE, RUE DE LA LOURNEAU,47.19949099999999,-1.4893732
ST SEBASTIEN SUR LOIRE, RUE DES LYS,47.1923834,-1.5123677
ST SEBASTIEN SUR LOIRE, RUE DU PETIT ANJOU,47.2062412,-1.5007507
VERTOU, RTE DE LA FONTENELLE,47.184466799999996,-1.5045853
NANTES, RUE DES EPIS,47.260157899999996,-1.5719678
NANTES, RUE DES FLEURS,47.2509257,-1.5737961999999999
NANTES, RUE DES GOBELETS,47.19174169999999,-1.5294746000000001
NANTES, ALL VILLANOVA,47.2533775,-1.5569657
ORVAULT, RUE DE LA PEPINIERE,47.2509643,-1.5919849
REZE, RUE BARBARA,47.180724100000006,-1.5541206
REZE, B RUE DE L ERDRONNIERE,47.17559079999999,-1.5435940000000001
REZE, RUE JOSEPH ET LUCIEN LECLERC,47.1797196,-1.5466841999999998
ST-HERBLAIN, AV DES ROUGES GORGES,47.241254999999995,-1.60145
ST SEBASTIEN SUR LOIRE, RUE DE GEVAUDAN,47.2014104,-1.4910758999999998
ST SEBASTIEN SUR LOIRE, RUE DE LA GRANDE LANDE,47.1908239,-1.4995867
VERTOU, B RUE DU MOULIN,47.17929059999999,-1.4813902
NANTES, RUE BOUGAINVILLE,47.198577,-1.5843891
NANTES, RUE DES BOURDONNIERES,47.1870637,-1.5213157
NANTES, RUE DES CHALATRES,47.228704,-1.5335276000000002
NANTES, B AV GERGAUD,47.211656700000006,-1.5466864
NANTES, RUE DE LA GILARDERIE,47.1878487,-1.5205543
NANTES, VEN LOUIS GALLIEN,47.2405749,-1.5161267
NANTES, ALL MATHIAS SANDORF,47.234993700000004,-1.5280491000000003
ORVAULT, RUE DES DAHLIAS,47.2445398,-1.5864941000000001
ORVAULT, B RUE DES HORTENSIAS,47.2617915,-1.5921723
REZE, RUE MOREAU,47.1950114,-1.5819192
REZE, RUE DU PELICAN,47.17847949999999,-1.5551787000000001
REZE, IMP DE LA SAUZAIE,47.178555200000005,-1.5388851000000001
ST SEBASTIEN SUR LOIRE, RUE BAPTISTE MARCET,47.2082384,-1.5082982
ST SEBASTIEN SUR LOIRE, RUE DES CEDRES,47.198233200000004,-1.5009118000000001
ST SEBASTIEN SUR LOIRE, RUE DES CHARENTES,47.20043219999999,-1.4917049999999998
ST SEBASTIEN SUR LOIRE, B RUE DES DEPORTES,47.201705700000005,-1.4864431999999999
NANTES, BD DES ANGLAIS,47.2280862,-1.5800637
NANTES, B BD DES ANGLAIS,47.2287816,-1.5772238
NANTES, AV BERANGER,47.219171100000004,-1.5922412000000001
NANTES, RUE DE LA CAILLETTE,47.216793700000004,-1.5857865
NANTES, RUE COLETTE BESSON,47.2224558,-1.5160879999999999
NANTES, RUE DE LA CONVENTION,47.2106868,-1.5914471000000001
NANTES, AV EUGENE HAREL,47.2315141,-1.5725874
NANTES, BD DE LA FRATERNITE,47.218411100000004,-1.5875919
NANTES, RUE JEAN ROBIC,47.24693920000001,-1.5199566
NANTES, AV DU LOING,47.23551459999999,-1.5013858
NANTES, AV MAURICE CLETRAS,47.2530197,-1.5105437
NANTES, RUE DU MILLAU,47.2604321,-1.5235725
NANTES, AV DES OISEAUX,47.25548999999999,-1.5613057
NANTES, RUE DE L OUCHE BURON,47.2532817,-1.5268214
NANTES, AV DES PRELUDES,47.243111600000006,-1.5100023999999999
NANTES, RUE DES PRIMEVERES,47.228008,-1.5848973999999998
REZE, RUE DES CHEVALIERS,47.1957719,-1.5529741000000001
REZE, AV I ET F JOLIOT CURIE,47.1828707,-1.5570286
REZE, RUE MAURICE UTRILLO,47.1808775,-1.5616285
REZE, RUE DE LA VOLIERE,47.18096509999999,-1.538117
ST-HERBLAIN, AV DE L ATLANTIQUE,47.223667999999996,-1.606311
ST SEBASTIEN SUR LOIRE, RUE DES FRESCHES,47.19799159999999,-1.5046481000000003
ST SEBASTIEN SUR LOIRE, RUE DE LA LIBERATION,47.2005417,-1.5175669
ST SEBASTIEN SUR LOIRE, RUE DE QUEBEC,47.197748,-1.4890059
NANTES, RUE DES BOURDERIES,47.20638659999999,-1.5980417
NANTES, RUE DES CHATAIGNIERS,47.236176799999996,-1.5720208999999998
NANTES, B RUE CONDORCET,47.2205528,-1.5843466
NANTES, RUE DU CORPS DE GARDE,47.21515249999999,-1.5985573999999998
NANTES, RUE DES GIRAUDAIS,47.1853936,-1.5298101
NANTES, RUE JULIEN,47.2333584,-1.5680037
NANTES, CHE DE LA LANDE ST JOSEPH,47.256023299999995,-1.524675
NANTES, ALL MARYSE HILSZ,47.2432528,-1.5331436
NANTES, AV DE LA TEINTURERIE FERRAND,47.22385060000001,-1.5728291
REZE, RUE DE LA CROIX MEDARD,47.1880072,-1.5739454
REZE, RUE GEORGES BERTHOME,47.1787271,-1.5529121000000001
REZE, RUE LOUIS SAMSON,47.167178,-1.5582639999999999
ST SEBASTIEN SUR LOIRE, RUE DU CLOS TOREAU,47.194235799999994,-1.5255251
ST SEBASTIEN SUR LOIRE, RUE DE LA PYRAMIDE,47.199783399999994,-1.4857817
VERTOU, B AV DES MARAICHERS,47.18754439999999,-1.4970693000000002
NANTES, RUE DE LA DURANTIERE,47.213385200000005,-1.602428
NANTES, RUE DES FRENES,47.2536919,-1.5447718000000001
NANTES, RUE DE GRILLAUD,47.220143500000006,-1.5824958
NANTES, AV DES IRIS,47.243916399999996,-1.5077196000000002
NANTES, AV JULES VEDRINES,47.2368519,-1.5604278999999999
NANTES, IMP MODOT,47.2108927,-1.5941678999999997
NANTES, CHE DES REUNIS,47.1987909,-1.599779
NANTES, RTE DE ST HERBLAIN,47.210461200000005,-1.6023385
NANTES, RTE DE ST SEBASTIEN,47.1995359,-1.5299578999999999
NANTES, AV DES SAULES,47.2333983,-1.5131763999999999
NANTES, AV DES VESPREES,47.244138,-1.5005329
NANTES, B AV DES VESPREES,47.244138,-1.5005329
ORVAULT, RUE DES LILAS,47.245683500000005,-1.5830846
ORVAULT, RUE DE LA MAISON NEUVE,47.2476206,-1.5912159
ORVAULT, RUE DES ROSES,47.245222600000005,-1.5856456
REZE, RUE MARION CAHOUR,47.1893596,-1.5656246
ST-HERBLAIN, B AV DE L EGLANTINE,47.2363563,-1.587077
ST-HERBLAIN, RUE GEORGES MANDEL,47.228586,-1.600538
ST SEBASTIEN SUR LOIRE, RUE DU GENERAL DE GAULLE,47.208014399999996,-1.4928805
BOUGUENAIS, RUE DES CABOTEURS,47.186394799999995,-1.587595
BOUGUENAIS, CHE DE L OUCHETTE,47.1855316,-1.5782903
CHAPELLE-SUR-ERDRE (LA), ALL DU BOCAGE,47.264212,-1.551609
NANTES, RUE BERNARD ROY,47.2285778,-1.5897596999999999
NANTES, B RUE DU BOIS FLEURI,47.1877285,-1.5129781
NANTES, RUE CAMILLE FLAMMARION,47.2259853,-1.5741611
NANTES, IMP CARASSIN,47.25382099999999,-1.5328948999999998
NANTES, PL CHARLES LECHAT,47.2039269,-1.5809868
NANTES, RUE DE LA CHARREE,47.2121336,-1.5885131000000001
NANTES, AV JACQUES AUNEAU,47.236307700000005,-1.5255958
NANTES, AV JACQUES PREVERT,47.18870279999999,-1.5190044
NANTES, RUE DU LANDREAU,47.2323118,-1.5139546999999998
NANTES, AV LOUIS LACHENAL,47.2310972,-1.5217048999999998
NANTES, AV LOUIS LOUCHEUR,47.193859700000004,-1.5264695
NANTES, AV DES ONDES,47.200214300000006,-1.5312371
NANTES, RUE PAUL BERT,47.2132999,-1.59629
NANTES, RUE STEPHENSON,47.22386029999999,-1.5284845
REZE, AV DES BERGERONNETTES,47.1869574,-1.5422456
REZE, B RUE FRANCOIS SORIN,47.1832165,-1.5455529
REZE, RUE DE LA GALARNIERE,47.1740948,-1.555668
ST-HERBLAIN, RUE GASPARD MONGE,47.23036399999999,-1.6078348999999998
ST SEBASTIEN SUR LOIRE, RUE DES GARENNES,47.19800590000001,-1.5031281
NANTES, T RUE DE LA BERAUDIERE,47.226290000000006,-1.5468167
NANTES, RUE DE L ENCHANTERIE,47.225736299999994,-1.5146156000000002
NANTES, AV DU PARADISIER,47.2557784,-1.5070649
NANTES, IMP DE LA SYMPHONIE,47.218705,-1.596442
REZE, RUE DU CHATEAU DE REZE,47.18263109999999,-1.5620469
ST SEBASTIEN SUR LOIRE, B RUE DE LA GIBRAYE,47.2068679,-1.5170211999999998
NANTES, RUE A BARBE TORTE,47.2057257,-1.5565878999999998
NANTES, RUE ANDRE GABRIEL,47.217099,-1.5851916000000001
NANTES, RUE AREGNAUDEAU,47.204473,-1.5773898000000002
NANTES, AV ARMAND BOUVIER,47.2334294,-1.5403446
NANTES, RUE D ARSONVAL,47.22739199999999,-1.5794328000000002
NANTES, T AV BOURGAULT DUCOUDRAY,47.2060884,-1.5575777
NANTES, RUE DE CHATEAULIN,47.228091600000006,-1.5584736000000001
NANTES, RUE COLUMELLE,47.2107325,-1.5477016000000001
NANTES, AV DES HORTENSIAS,47.2259874,-1.5693175
NANTES, RUE LT JEAN DE SESMAISONS,47.2174875,-1.5420386000000001
NANTES, RUE DE LA LUNE D'EAU,47.2507565,-1.5314967
REZE, RUE DE LA BASSE ILE,47.196259999999995,-1.565947
REZE, RUE DE LA CHESNAIE,47.1783419,-1.560322
REZE, RUE JEAN BAPTISTE HAMON,47.1865014,-1.5711913
REZE, B ALL DU PARC DES MAHAUDIERES,47.187372499999995,-1.5619032
REZE, IMP DES PELOUEES,47.1780438,-1.539788
REZE, RUE DES PICTONS,47.19133679999999,-1.5638444
ST SEBASTIEN SUR LOIRE, RUE ALEXANDRE FOURNY,47.193800200000005,-1.5140528
ST SEBASTIEN SUR LOIRE, CHE DU COLOMBAGE,47.205376,-1.503103
ST SEBASTIEN SUR LOIRE, RUE ELISA MERCOEUR,47.19304469999999,-1.524277
NANTES, RTE DE CLISSON,47.187408399999995,-1.4830061
NANTES, RUE CDT HENRI VIOT,47.229428999999996,-1.5912323
NANTES, PL EILEEN GRAY,47.218371000000005,-1.553621
NANTES, RUE DU GOIS,47.2297679,-1.5305806999999998
NANTES, RUE GUIBAL,47.221106,-1.5711326
NANTES, RUE JACQUES CHAMBON,47.2007001,-1.5476083999999999
NANTES, AV JEANNE JUGAN,47.202978200000004,-1.5956177
NANTES, RUE DE LA MELINIERE,47.2275646,-1.572705
NANTES, B RUE DE LA RIPOSSIERE,47.1919573,-1.5338921
REZE, RUE ALEXANDRE HUCHON,47.1844034,-1.5496403
REZE, RUE DU DOCTEUR NOGUES,47.1839627,-1.5470372
REZE, RUE MAURICE LAGATHU,47.1818305,-1.5378732
ST-HERBLAIN, RUE EMILE ZOLA,47.221506,-1.6106878999999998
ST SEBASTIEN SUR LOIRE, RUE DE LA BAUGERIE,47.2041028,-1.5184792999999999
BOUGUENAIS, RUE MARYSE BASTIE,47.1841367,-1.5779128
BOUGUENAIS, RUE PASTEUR,47.1860516,-1.58057
NANTES, RUE BRANLY,47.2269058,-1.5780506
NANTES, IMP CARRIERE DE VILLENEUVE,47.2149852,-1.5946136999999998
NANTES, AV GILBERT BAUDUZ,47.233956899999995,-1.557258
NANTES, RUE JEAN BOUIN,47.215003,-1.6011544
NANTES, BD JULES VERNE,47.2415434,-1.5293171
NANTES, AV DE LA MUSTAUDIERE,47.2362313,-1.5072339
NANTES, RUE DE LA PAPOTIERE,47.2397234,-1.4976585
NANTES, RUE DES SIX AQUEDUCS,47.21418329999999,-1.5957625
NANTES, RUE STENDHAL,47.258357000000004,-1.5707985
ORVAULT, RUE DES BOUTONS D OR,47.3023487,-1.6169143
REZE, RUE FELICIEN THOMAZEAU,47.184209700000004,-1.5429121000000001
ST-HERBLAIN, AV DE LA BARAUDIERE,47.234778999999996,-1.5917299999999999
ST-HERBLAIN, RUE DE LA GAROTTERIE,47.22407929999999,-1.6070585
ST-HERBLAIN, RUE MICHEL DELALANDE,47.22005770000001,-1.6066821000000002
ST SEBASTIEN SUR LOIRE, RUE DES CORBIERES,47.201276799999995,-1.4886097
ST SEBASTIEN SUR LOIRE, RUE DE LA CROIX SOURDEAU,47.2030267,-1.5199315
NANTES, AV DES ANTILOPES,47.231700200000006,-1.5056167999999999
NANTES, BD DE LONGCHAMP,47.236842700000004,-1.5768101
NANTES, B AV DU PETIT HERMITAGE,47.235437,-1.565865
NANTES, RUE DE PLOERMEL,47.2254213,-1.5207138
NANTES, BD DES POILUS,47.2315015,-1.5305312
NANTES, RUE DES TULIPES,47.23600099999999,-1.5168403999999998
ORVAULT, RUE DE LA CLAIRE FONTAINE,47.2495732,-1.5956019
REZE, RUE DE LA PAIX,47.2147951,-1.5544545
REZE, RUE PIERRE LHERMITTE,47.1939583,-1.5836288
ST SEBASTIEN SUR LOIRE, RUE DES DEPORTES,47.2027503,-1.4950842
ST SEBASTIEN SUR LOIRE, RUE DE QUERCY,47.2019712,-1.5007162
ST SEBASTIEN SUR LOIRE, RUE THOMAS MAISONNEUVE,47.2068899,-1.5101004
NANTES, RUE ALPHONSE KARR,47.226824900000004,-1.5735478
NANTES, RUE BAPTISTE MARCET,47.2154652,-1.6024911
NANTES, AV DES CLAVECINS,47.2495493,-1.5702688
NANTES, AV EUGENE SUE,47.23924479999999,-1.5448091
NANTES, AV DE LA FORET,47.24341879999999,-1.5765431
NANTES, RUE MAURICE BARRES,47.256714200000005,-1.5693406
NANTES, RUE DU PLESSIS DE GRENEDAN,47.2362653,-1.5616818000000001
NANTES, AV RENE JALAIS,47.223213200000004,-1.5197277
NANTES, RUE STUART,47.2328361,-1.5811859
NANTES, RUE VIDIE,47.2330178,-1.5623001
ORVAULT, AV DE LA FERRIERE,47.2455994,-1.5899063999999998
REZE, RUE FRANCOIS BONAMY,47.1803091,-1.5288712
ST-HERBLAIN, AV DE L EGLANTINE,47.2336182,-1.5865716
ST-HERBLAIN, AV DES GRANDS BOIS,47.23522089999999,-1.5935091000000001
ST-HERBLAIN, IMP JULES ROMAIN,47.2207456,-1.6107771999999998
ST SEBASTIEN SUR LOIRE, RUE DES COUCOUS,47.198944,-1.5115453
VERTOU, AV DU CLOS CAMBERGER,47.1841736,-1.5166454
NANTES, RUE FERDINAND BUISSON,47.2046595,-1.5824527
NANTES, AV DE GALICE,47.23196129999999,-1.5887343
NANTES,RTE DE LA JONELIERE,47.2526179,-1.5478821000000003
NANTES, RUE PAUL DELAROCHE,47.2216662,-1.5955988
NANTES, AV ST GEORGES,47.2053136,-1.5806697
NANTES, RUE DE LA VILLE EN PIERRE,47.22486139999999,-1.5267194
ST-HERBLAIN, AV DE CHEVERNY,47.242140899999995,-1.600386
ST SEBASTIEN SUR LOIRE, RUE DES CHENES,47.19224370000001,-1.5152181999999998
NANTES, AV DES ALPAGAS,47.23189,-1.504365
NANTES, CHE DE LA BOUCARDIERE,47.201001399999996,-1.5976011
NANTES, RUE CARDINAL RICHARD,47.2339602,-1.5705132
NANTES, RUE DU CROISSANT,47.23770349999999,-1.5254626
NANTES, RUE DESIRE COLOMBE,47.2119372,-1.5682868
NANTES, RUE DES FOLIES CHAILLOU,47.2222421,-1.5758686000000002
NANTES, AV DE LA GARE DE ST JOSEPH,47.2547226,-1.5224046999999998
NANTES, AV JACQUES LAMBERT,47.2228804,-1.5254881999999998
NANTES, AV DES LAURIERS,47.2134912,-1.5864638
NANTES, AV DE LUSANCAY,47.201268299999995,-1.5823117
NANTES, BD MICHELET,47.23568299999999,-1.5565234
NANTES, RUE PROFESSEUR DUBUISSON,47.227560700000005,-1.5894315
NANTES, CHE DES PROPRIETAIRES,47.2150904,-1.5822610000000001
NANTES, RUE RAOUL DUFY,47.22144429999999,-1.6004455
NANTES, RUE VILLEBOIS MAREUIL,47.22737069999999,-1.5641684
ORVAULT, AV FELIX VINCENT,47.250024700000004,-1.5857013
ORVAULT, AV DE LA JEUNESSE,47.2451574,-1.592914
ST-HERBLAIN, AV D AMBOISE,47.2394369,-1.5950136000000001
ST-HERBLAIN, AV DU DOCTEUR RAPPIN,47.237927500000005,-1.590697
ST SEBASTIEN SUR LOIRE, RUE DES BLEUETS,47.1961114,-1.5167141000000002
ST SEBASTIEN SUR LOIRE, RUE COSTES ET BELLONTE,47.2008911,-1.5131566
ST SEBASTIEN SUR LOIRE, RUE DE LA GENETIERE,47.1900378,-1.4982481
ST SEBASTIEN SUR LOIRE, RUE DES ROSES,47.1939388,-1.5245951000000002
VERTOU, RUE EMILE PINEAU,47.18619279999999,-1.5019870000000002
NANTES, RUE DES CHARMILLES,47.2030961,-1.5859681
NANTES, RUE DE LA DUCHESSE,47.2212466,-1.5893647
NANTES, IMP DES GARDENIAS,47.226197799999994,-1.5162191999999999
NANTES, RUE DE RACAPE,47.2354542,-1.5370816
NANTES, AV DU SEQUOIA,47.2534766,-1.5455618999999998
VERTOU, AV DU ROI HENRI IV,47.1826044,-1.5164463
BOUGUENAIS, RUE RENE LEDUC,47.184468100000004,-1.5807043
NANTES, RUE NICOLAS APPERT,47.2139224,-1.5816398
NANTES, RUE DU BOIS DE HERCE,47.2085113,-1.5911008999999998
NANTES, RUE DUPLEIX,47.20439349999999,-1.5790701999999999
NANTES, BD GASTON SERPETTE,47.226638,-1.5757398
NANTES, RUE DE LA GOURMETTE,47.23230770000001,-1.5720003
NANTES, B BD PAUL LANGEVIN,47.20543869999999,-1.5629393
NANTES, B CHE DES TERRES,47.269609700000004,-1.5230256000000002
NANTES, RUE DE TOURAINE,47.2267095,-1.563589
NANTES, RUE DE VIENNE,47.230909200000006,-1.5352641000000002
REZE, RUE HENRI BARBUSSE,47.189992700000005,-1.5586276000000001
REZE, RUE MARCEL LACROIX,47.194639200000005,-1.5797282
ST-HERBLAIN, BD DU MASSACRE,47.2300479,-1.5958082
ST-HERBLAIN, RUE DES ROBINIERS,47.2252818,-1.6055865
ST SEBASTIEN SUR LOIRE, RUE EDOUARD HERVE,47.1916761,-1.5198575
ST SEBASTIEN SUR LOIRE, RUE DE VENDOME,47.2037299,-1.4925709999999999
